{"type":"FeatureCollection", "features": [
{"type":"Feature","geometry":{"type":"Point","coordinates":[-99.07473572701159,19.416334085596525,0]},"properties":{"SISTEMA":"STC Metro","NOMBRE":"Pantitlán","LINEA":"01","EST":"01","CVE_EST":"STC0101","CVE_EOD17":"05014","TIPO":"Terminal / Transbordo","ALCALDIAS":"Venustiano Carranza","AÑO":1984}},
{"type":"Feature","geometry":{"type":"Point","coordinates":[-99.0822888117768,19.41192045593743,0]},"properties":{"SISTEMA":"STC Metro","NOMBRE":"Zaragoza","LINEA":"01","EST":"02","CVE_EST":"STC0102","CVE_EOD17":"05020","TIPO":"Intermedia","ALCALDIAS":"Venustiano Carranza","AÑO":1969}},
{"type":"Feature","geometry":{"type":"Point","coordinates":[-99.09021039171121,19.416478456907367,0]},"properties":{"SISTEMA":"STC Metro","NOMBRE":"Gomez Farías","LINEA":"01","EST":"03","CVE_EST":"STC0103","CVE_EOD17":"05007","TIPO":"Intermedia","ALCALDIAS":"Venustiano Carranza","AÑO":1969}},
{"type":"Feature","geometry":{"type":"Point","coordinates":[-99.09625873241016,19.419941964850207,0]},"properties":{"SISTEMA":"STC Metro","NOMBRE":"Boulevard Puerto Aéreo","LINEA":"01","EST":"04","CVE_EST":"STC0104","CVE_EOD17":"05003","TIPO":"Intermedia","ALCALDIAS":"Venustiano Carranza","AÑO":1969}},
{"type":"Feature","geometry":{"type":"Point","coordinates":[-99.10277436397425,19.42335533557525,0]},"properties":{"SISTEMA":"STC Metro","NOMBRE":"Balbuena","LINEA":"01","EST":"05","CVE_EST":"STC0105","CVE_EOD17":"05001","TIPO":"Intermedia","ALCALDIAS":"Venustiano Carranza","AÑO":1969}},
{"type":"Feature","geometry":{"type":"Point","coordinates":[-99.10979926910476,19.42685434666967,0]},"properties":{"SISTEMA":"STC Metro","NOMBRE":"Moctezuma","LINEA":"01","EST":"06","CVE_EST":"STC0106","CVE_EOD17":"05012","TIPO":"Intermedia","ALCALDIAS":"Venustiano Carranza","AÑO":1969}},
{"type":"Feature","geometry":{"type":"Point","coordinates":[-99.11426095239393,19.43005884961391,0]},"properties":{"SISTEMA":"STC Metro","NOMBRE":"San Lázaro","LINEA":"01","EST":"07","CVE_EST":"STC0107","CVE_EOD17":"05017","TIPO":"Transbordo","ALCALDIAS":"Venustiano Carranza","AÑO":1969}},
{"type":"Feature","geometry":{"type":"Point","coordinates":[-99.12090955005588,19.42954014071058,0]},"properties":{"SISTEMA":"STC Metro","NOMBRE":"Candelaria","LINEA":"01","EST":"08","CVE_EST":"STC0108","CVE_EOD17":"05004","TIPO":"Transbordo","ALCALDIAS":"Venustiano Carranza","AÑO":1969}},
{"type":"Feature","geometry":{"type":"Point","coordinates":[-99.12502541851761,19.42548757157406,0]},"properties":{"SISTEMA":"STC Metro","NOMBRE":"Merced","LINEA":"01","EST":"09","CVE_EST":"STC0109","CVE_EOD17":"05011","TIPO":"Intermedia","ALCALDIAS":"Venustiano Carranza","AÑO":1969}},
{"type":"Feature","geometry":{"type":"Point","coordinates":[-99.13263861199377,19.425923495107927,0]},"properties":{"SISTEMA":"STC Metro","NOMBRE":"Pino Suárez","LINEA":"01","EST":"10","CVE_EST":"STC0110","CVE_EOD17":"05015","TIPO":"Transbordo","ALCALDIAS":"Cuauhtémoc","AÑO":1969}},
{"type":"Feature","geometry":{"type":"Point","coordinates":[-99.13783045646255,19.42639351179822,0]},"properties":{"SISTEMA":"STC Metro","NOMBRE":"Isabel La Católica","LINEA":"01","EST":"11","CVE_EST":"STC0111","CVE_EOD17":"05009","TIPO":"Intermedia","ALCALDIAS":"Cuauhtémoc","AÑO":1969}},
{"type":"Feature","geometry":{"type":"Point","coordinates":[-99.14340629386963,19.426948189741864,0]},"properties":{"SISTEMA":"STC Metro","NOMBRE":"Salto del Agua","LINEA":"01","EST":"12","CVE_EST":"STC0112","CVE_EOD17":"05016","TIPO":"Transbordo","ALCALDIAS":"Cuauhtémoc","AÑO":1969}},
{"type":"Feature","geometry":{"type":"Point","coordinates":[-99.14948115142849,19.426997876088905,0]},"properties":{"SISTEMA":"STC Metro","NOMBRE":"Balderas","LINEA":"01","EST":"13","CVE_EST":"STC0113","CVE_EOD17":"05002","TIPO":"Transbordo","ALCALDIAS":"Cuauhtémoc","AÑO":1969}},
{"type":"Feature","geometry":{"type":"Point","coordinates":[-99.15459795134981,19.4256611110838,0]},"properties":{"SISTEMA":"STC Metro","NOMBRE":"Cuauhtémoc","LINEA":"01","EST":"14","CVE_EST":"STC0114","CVE_EOD17":"05006","TIPO":"Intermedia","ALCALDIAS":"Cuauhtémoc","AÑO":1969}},
{"type":"Feature","geometry":{"type":"Point","coordinates":[-99.16328887947714,19.423651800607303,0]},"properties":{"SISTEMA":"STC Metro","NOMBRE":"Insurgentes","LINEA":"01","EST":"15","CVE_EST":"STC0115","CVE_EOD17":"05008","TIPO":"Intermedia","ALCALDIAS":"Cuauhtémoc","AÑO":1969}},
{"type":"Feature","geometry":{"type":"Point","coordinates":[-99.17111907391485,19.421849915921573,0]},"properties":{"SISTEMA":"STC Metro","NOMBRE":"Sevilla","LINEA":"01","EST":"16","CVE_EST":"STC0116","CVE_EOD17":"05018","TIPO":"Intermedia","ALCALDIAS":"Cuauhtémoc","AÑO":1969}},
{"type":"Feature","geometry":{"type":"Point","coordinates":[-99.17641673157046,19.42074629504737,0]},"properties":{"SISTEMA":"STC Metro","NOMBRE":"Chapultepec","LINEA":"01","EST":"17","CVE_EST":"STC0117","CVE_EOD17":"05005","TIPO":"Intermedia","ALCALDIAS":"Cuauhtémoc / Miguel Hidalgo","AÑO":1969}},
{"type":"Feature","geometry":{"type":"Point","coordinates":[-99.18198382947882,19.4129516424911,0]},"properties":{"SISTEMA":"STC Metro","NOMBRE":"Juanacatlán","LINEA":"01","EST":"18","CVE_EST":"STC0118","CVE_EOD17":"05010","TIPO":"Intermedia","ALCALDIAS":"Miguel Hidalgo","AÑO":1970}},
{"type":"Feature","geometry":{"type":"Point","coordinates":[-99.18763652631694,19.40251380233993,0]},"properties":{"SISTEMA":"STC Metro","NOMBRE":"Tacubaya","LINEA":"01","EST":"19","CVE_EST":"STC0119","CVE_EOD17":"05019","TIPO":"Transbordo","ALCALDIAS":"Miguel Hidalgo","AÑO":1970}},
{"type":"Feature","geometry":{"type":"Point","coordinates":[-99.20040474604608,19.398282375699324,0]},"properties":{"SISTEMA":"STC Metro","NOMBRE":"Observatorio","LINEA":"01","EST":"20","CVE_EST":"STC0120","CVE_EOD17":"05013","TIPO":"Terminal","ALCALDIAS":"Álvaro Obregón","AÑO":1972}},
{"type":"Feature","geometry":{"type":"Point","coordinates":[-99.21584248969683,19.459593208492073,0]},"properties":{"SISTEMA":"STC Metro","NOMBRE":"Cuatro Caminos","LINEA":"02","EST":"01","CVE_EST":"STC0201","CVE_EOD17":"05045","TIPO":"Terminal","ALCALDIAS":"Estado de México - Naucalpan de Juárez","AÑO":1984}},
{"type":"Feature","geometry":{"type":"Point","coordinates":[-99.20294912952721,19.458638560770133,0]},"properties":{"SISTEMA":"STC Metro","NOMBRE":"Panteones","LINEA":"02","EST":"02","CVE_EST":"STC0202","CVE_EOD17":"05052","TIPO":"Intermedia","ALCALDIAS":"Miguel Hidalgo","AÑO":1984}},
{"type":"Feature","geometry":{"type":"Point","coordinates":[-99.18823093441412,19.459376010718714,0]},"properties":{"SISTEMA":"STC Metro","NOMBRE":"Tacuba","LINEA":"02","EST":"03","CVE_EST":"STC0203","CVE_EOD17":"05059","TIPO":"Transbordo","ALCALDIAS":"Miguel Hidalgo","AÑO":1970}},
{"type":"Feature","geometry":{"type":"Point","coordinates":[-99.18149576791224,19.457253889739235,0]},"properties":{"SISTEMA":"STC Metro","NOMBRE":"Cuitláhuac","LINEA":"02","EST":"04","CVE_EST":"STC0204","CVE_EOD17":"05046","TIPO":"Intermedia","ALCALDIAS":"Miguel Hidalgo","AÑO":1970}},
{"type":"Feature","geometry":{"type":"Point","coordinates":[-99.17549381434115,19.452909219801555,0]},"properties":{"SISTEMA":"STC Metro","NOMBRE":"Popotla","LINEA":"02","EST":"05","CVE_EST":"STC0205","CVE_EOD17":"05054","TIPO":"Intermedia","ALCALDIAS":"Miguel Hidalgo","AÑO":1970}},
{"type":"Feature","geometry":{"type":"Point","coordinates":[-99.17177923331683,19.449273554997184,0]},"properties":{"SISTEMA":"STC Metro","NOMBRE":"Colegio Militar","LINEA":"02","EST":"06","CVE_EST":"STC0206","CVE_EOD17":"05044","TIPO":"Intermedia","ALCALDIAS":"Miguel Hidalgo","AÑO":1970}},
{"type":"Feature","geometry":{"type":"Point","coordinates":[-99.16727403741045,19.44455770552456,0]},"properties":{"SISTEMA":"STC Metro","NOMBRE":"Normal","LINEA":"02","EST":"07","CVE_EST":"STC0207","CVE_EOD17":"05051","TIPO":"Intermedia","ALCALDIAS":"Miguel Hidalgo","AÑO":1970}},
{"type":"Feature","geometry":{"type":"Point","coordinates":[-99.16066207280677,19.441904254426483,0]},"properties":{"SISTEMA":"STC Metro","NOMBRE":"San Cosme","LINEA":"02","EST":"08","CVE_EST":"STC0208","CVE_EOD17":"05058","TIPO":"Intermedia","ALCALDIAS":"Cuauhtémoc","AÑO":1970}},
{"type":"Feature","geometry":{"type":"Point","coordinates":[-99.15422782571336,19.439227179139703,0]},"properties":{"SISTEMA":"STC Metro","NOMBRE":"Revolución","LINEA":"02","EST":"09","CVE_EST":"STC0209","CVE_EOD17":"05056","TIPO":"Intermedia","ALCALDIAS":"Cuauhtémoc","AÑO":1970}},
{"type":"Feature","geometry":{"type":"Point","coordinates":[-99.14722340551585,19.43754674790357,0]},"properties":{"SISTEMA":"STC Metro","NOMBRE":"Hidalgo","LINEA":"02","EST":"10","CVE_EST":"STC0210","CVE_EOD17":"05049","TIPO":"Transbordo","ALCALDIAS":"Cuauhtémoc","AÑO":1970}},
{"type":"Feature","geometry":{"type":"Point","coordinates":[-99.14161363737124,19.436377755896043,0]},"properties":{"SISTEMA":"STC Metro","NOMBRE":"Bellas Artes","LINEA":"02","EST":"11","CVE_EST":"STC0211","CVE_EOD17":"05042","TIPO":"Transbordo","ALCALDIAS":"Cuauhtémoc","AÑO":1970}},
{"type":"Feature","geometry":{"type":"Point","coordinates":[-99.13686784023699,19.43555800327121,0]},"properties":{"SISTEMA":"STC Metro","NOMBRE":"Allende","LINEA":"02","EST":"12","CVE_EST":"STC0212","CVE_EOD17":"05041","TIPO":"Intermedia","ALCALDIAS":"Cuauhtémoc","AÑO":1970}},
{"type":"Feature","geometry":{"type":"Point","coordinates":[-99.13225107327767,19.432501910975944,0]},"properties":{"SISTEMA":"STC Metro","NOMBRE":"Zócalo/Tenochtitlan","LINEA":"02","EST":"13","CVE_EST":"STC0213","CVE_EOD17":"05064","TIPO":"Intermedia","ALCALDIAS":"Cuauhtémoc","AÑO":1970}},
{"type":"Feature","geometry":{"type":"Point","coordinates":[-99.13294182670589,19.42438471172242,0]},"properties":{"SISTEMA":"STC Metro","NOMBRE":"Pino Suárez","LINEA":"02","EST":"14","CVE_EST":"STC0214","CVE_EOD17":"05053","TIPO":"Transbordo","ALCALDIAS":"Cuauhtémoc","AÑO":1970}},
{"type":"Feature","geometry":{"type":"Point","coordinates":[-99.13453987415669,19.41602164706914,0]},"properties":{"SISTEMA":"STC Metro","NOMBRE":"San Antonio Abad","LINEA":"02","EST":"15","CVE_EST":"STC0215","CVE_EOD17":"05057","TIPO":"Intermedia","ALCALDIAS":"Cuauhtémoc","AÑO":1970}},
{"type":"Feature","geometry":{"type":"Point","coordinates":[-99.1356181172527,19.40917986927759,0]},"properties":{"SISTEMA":"STC Metro","NOMBRE":"Chabacano","LINEA":"02","EST":"16","CVE_EST":"STC0216","CVE_EOD17":"05043","TIPO":"Transbordo","ALCALDIAS":"Cuauhtémoc","AÑO":1970}},
{"type":"Feature","geometry":{"type":"Point","coordinates":[-99.13689959248839,19.400868658018997,0]},"properties":{"SISTEMA":"STC Metro","NOMBRE":"Viaducto","LINEA":"02","EST":"17","CVE_EST":"STC0217","CVE_EOD17":"05061","TIPO":"Intermedia","ALCALDIAS":"Benito Juárez / Iztacalco","AÑO":1970}},
{"type":"Feature","geometry":{"type":"Point","coordinates":[-99.13780817932107,19.395210509950374,0]},"properties":{"SISTEMA":"STC Metro","NOMBRE":"Xola","LINEA":"02","EST":"18","CVE_EST":"STC0218","CVE_EOD17":"05063","TIPO":"Intermedia","ALCALDIAS":"Benito Juárez","AÑO":1970}},
{"type":"Feature","geometry":{"type":"Point","coordinates":[-99.13895916622117,19.38758177582601,0]},"properties":{"SISTEMA":"STC Metro","NOMBRE":"Villa de Cortés","LINEA":"02","EST":"19","CVE_EST":"STC0219","CVE_EOD17":"05062","TIPO":"Intermedia","ALCALDIAS":"Benito Juárez","AÑO":1970}},
{"type":"Feature","geometry":{"type":"Point","coordinates":[-99.14018788970765,19.37953276091363,0]},"properties":{"SISTEMA":"STC Metro","NOMBRE":"Nativitas","LINEA":"02","EST":"20","CVE_EST":"STC0220","CVE_EOD17":"05050","TIPO":"Intermedia","ALCALDIAS":"Benito Juárez","AÑO":1970}},
{"type":"Feature","geometry":{"type":"Point","coordinates":[-99.14157355491439,19.36992483866799,0]},"properties":{"SISTEMA":"STC Metro","NOMBRE":"Portales","LINEA":"02","EST":"21","CVE_EST":"STC0221","CVE_EOD17":"05055","TIPO":"Intermedia","ALCALDIAS":"Benito Juárez","AÑO":1970}},
{"type":"Feature","geometry":{"type":"Point","coordinates":[-99.14290376152475,19.361979299764318,0]},"properties":{"SISTEMA":"STC Metro","NOMBRE":"Ermita","LINEA":"02","EST":"22","CVE_EST":"STC0222","CVE_EOD17":"05047","TIPO":"Transbordo","ALCALDIAS":"Benito Juárez","AÑO":1970}},
{"type":"Feature","geometry":{"type":"Point","coordinates":[-99.14500636295455,19.353235914861184,0]},"properties":{"SISTEMA":"STC Metro","NOMBRE":"General Anaya","LINEA":"02","EST":"23","CVE_EST":"STC0223","CVE_EOD17":"05048","TIPO":"Intermedia","ALCALDIAS":"Coyoacán","AÑO":1970}},
{"type":"Feature","geometry":{"type":"Point","coordinates":[-99.13953277638426,19.343757098277724,0]},"properties":{"SISTEMA":"STC Metro","NOMBRE":"Tasqueña","LINEA":"02","EST":"24","CVE_EST":"STC0224","CVE_EOD17":"05060","TIPO":"Terminal","ALCALDIAS":"Coyoacán","AÑO":1970}},
{"type":"Feature","geometry":{"type":"Point","coordinates":[-99.11950993825916,19.495337618645664,0]},"properties":{"SISTEMA":"STC Metro","NOMBRE":"Indios Verdes","LINEA":"03","EST":"01","CVE_EST":"STC0301","CVE_EOD17":"05076","TIPO":"Terminal","ALCALDIAS":"Gustavo A. Madero","AÑO":1979}},
{"type":"Feature","geometry":{"type":"Point","coordinates":[-99.12549791712465,19.485114151342465,0]},"properties":{"SISTEMA":"STC Metro","NOMBRE":"Deportivo 18 de Marzo","LINEA":"03","EST":"02","CVE_EST":"STC0302","CVE_EOD17":"05069","TIPO":"Transbordo","ALCALDIAS":"Gustavo A. Madero","AÑO":1979}},
{"type":"Feature","geometry":{"type":"Point","coordinates":[-99.13201368299404,19.47719201148074,0]},"properties":{"SISTEMA":"STC Metro","NOMBRE":"Potrero","LINEA":"03","EST":"03","CVE_EST":"STC0303","CVE_EOD17":"05082","TIPO":"Intermedia","ALCALDIAS":"Gustavo A. Madero","AÑO":1979}},
{"type":"Feature","geometry":{"type":"Point","coordinates":[-99.13950623022468,19.468880133789003,0]},"properties":{"SISTEMA":"STC Metro","NOMBRE":"La Raza","LINEA":"03","EST":"04","CVE_EST":"STC0304","CVE_EOD17":"05078","TIPO":"Transbordo","ALCALDIAS":"Gustavo A. Madero","AÑO":1978}},
{"type":"Feature","geometry":{"type":"Point","coordinates":[-99.1431330841341,19.45505814280372,0]},"properties":{"SISTEMA":"STC Metro","NOMBRE":"Tlatelolco","LINEA":"03","EST":"05","CVE_EST":"STC0305","CVE_EOD17":"05083","TIPO":"Intermedia","ALCALDIAS":"Cuauhtémoc","AÑO":1970}},
{"type":"Feature","geometry":{"type":"Point","coordinates":[-99.14519334406981,19.44472633482843,0]},"properties":{"SISTEMA":"STC Metro","NOMBRE":"Guerrero","LINEA":"03","EST":"06","CVE_EST":"STC0306","CVE_EOD17":"05073","TIPO":"Transbordo","ALCALDIAS":"Cuauhtémoc","AÑO":1970}},
{"type":"Feature","geometry":{"type":"Point","coordinates":[-99.14678272133695,19.43738239226258,0]},"properties":{"SISTEMA":"STC Metro","NOMBRE":"Hidalgo","LINEA":"03","EST":"07","CVE_EST":"STC0307","CVE_EOD17":"05074","TIPO":"Transbordo","ALCALDIAS":"Cuauhtémoc","AÑO":1970}},
{"type":"Feature","geometry":{"type":"Point","coordinates":[-99.14768330576317,19.43325034645042,0]},"properties":{"SISTEMA":"STC Metro","NOMBRE":"Juárez","LINEA":"03","EST":"08","CVE_EST":"STC0308","CVE_EOD17":"05077","TIPO":"Intermedia","ALCALDIAS":"Cuauhtémoc","AÑO":1970}},
{"type":"Feature","geometry":{"type":"Point","coordinates":[-99.14906048003867,19.42648009336695,0]},"properties":{"SISTEMA":"STC Metro","NOMBRE":"Balderas","LINEA":"03","EST":"09","CVE_EST":"STC0309","CVE_EOD17":"05065","TIPO":"Transbordo","ALCALDIAS":"Cuauhtémoc","AÑO":1970}},
{"type":"Feature","geometry":{"type":"Point","coordinates":[-99.15036426521944,19.419484310191944,0]},"properties":{"SISTEMA":"STC Metro","NOMBRE":"Niños Héroes/Poder Judicial CDMX","LINEA":"03","EST":"10","CVE_EST":"STC0310","CVE_EOD17":"05080","TIPO":"Intermedia","ALCALDIAS":"Cuauhtémoc","AÑO":1970}},
{"type":"Feature","geometry":{"type":"Point","coordinates":[-99.15324536177903,19.413758753579426,0]},"properties":{"SISTEMA":"STC Metro","NOMBRE":"Hospital General","LINEA":"03","EST":"11","CVE_EST":"STC0311","CVE_EOD17":"05075","TIPO":"Intermedia","ALCALDIAS":"Cuauhtémoc","AÑO":1970}},
{"type":"Feature","geometry":{"type":"Point","coordinates":[-99.15513468952369,19.40745314744384,0]},"properties":{"SISTEMA":"STC Metro","NOMBRE":"Centro Médico","LINEA":"03","EST":"12","CVE_EST":"STC0312","CVE_EOD17":"05066","TIPO":"Transbordo","ALCALDIAS":"Cuauhtémoc","AÑO":1980}},
{"type":"Feature","geometry":{"type":"Point","coordinates":[-99.15603141534933,19.395920531617364,0]},"properties":{"SISTEMA":"STC Metro","NOMBRE":"Etiopía/Plaza de la Transparencia","LINEA":"03","EST":"13","CVE_EST":"STC0313","CVE_EOD17":"05081","TIPO":"Intermedia","ALCALDIAS":"Benito Juárez","AÑO":1980}},
{"type":"Feature","geometry":{"type":"Point","coordinates":[-99.15720459756614,19.386168518115365,0]},"properties":{"SISTEMA":"STC Metro","NOMBRE":"Eugenia","LINEA":"03","EST":"14","CVE_EST":"STC0314","CVE_EOD17":"05072","TIPO":"Intermedia","ALCALDIAS":"Benito Juárez","AÑO":1980}},
{"type":"Feature","geometry":{"type":"Point","coordinates":[-99.1594791658047,19.379184435402276,0]},"properties":{"SISTEMA":"STC Metro","NOMBRE":"División del Norte","LINEA":"03","EST":"15","CVE_EST":"STC0315","CVE_EOD17":"05071","TIPO":"Intermedia","ALCALDIAS":"Benito Juárez","AÑO":1980}},
{"type":"Feature","geometry":{"type":"Point","coordinates":[-99.16451029765572,19.371191786554387,0]},"properties":{"SISTEMA":"STC Metro","NOMBRE":"Zapata","LINEA":"03","EST":"16","CVE_EST":"STC0316","CVE_EOD17":"05085","TIPO":"Transbordo","ALCALDIAS":"Benito Juárez","AÑO":1980}},
{"type":"Feature","geometry":{"type":"Point","coordinates":[-99.17086152734286,19.361359077350073,0]},"properties":{"SISTEMA":"STC Metro","NOMBRE":"Coyoacán","LINEA":"03","EST":"17","CVE_EST":"STC0317","CVE_EOD17":"05068","TIPO":"Intermedia","ALCALDIAS":"Benito Juárez","AÑO":1983}},
{"type":"Feature","geometry":{"type":"Point","coordinates":[-99.17600108606379,19.353459024524685,0]},"properties":{"SISTEMA":"STC Metro","NOMBRE":"Viveros/Derechos Humanos","LINEA":"03","EST":"18","CVE_EST":"STC0318","CVE_EOD17":"05070","TIPO":"Intermedia","ALCALDIAS":"Álvaro Obregón / Coyoacán","AÑO":1983}},
{"type":"Feature","geometry":{"type":"Point","coordinates":[-99.18075665564406,19.346251833085887,0]},"properties":{"SISTEMA":"STC Metro","NOMBRE":"Miguel Ángel de Quevedo","LINEA":"03","EST":"19","CVE_EST":"STC0319","CVE_EOD17":"05079","TIPO":"Intermedia","ALCALDIAS":"Coyoacán","AÑO":1983}},
{"type":"Feature","geometry":{"type":"Point","coordinates":[-99.17697359521604,19.33609927480332,0]},"properties":{"SISTEMA":"STC Metro","NOMBRE":"Copilco","LINEA":"03","EST":"20","CVE_EST":"STC0320","CVE_EOD17":"05067","TIPO":"Intermedia","ALCALDIAS":"Coyoacán","AÑO":1983}},
{"type":"Feature","geometry":{"type":"Point","coordinates":[-99.17393845558945,19.324353482894324,0]},"properties":{"SISTEMA":"STC Metro","NOMBRE":"Universidad","LINEA":"03","EST":"21","CVE_EST":"STC0321","CVE_EOD17":"05084","TIPO":"Terminal","ALCALDIAS":"Coyoacán","AÑO":1983}},
{"type":"Feature","geometry":{"type":"Point","coordinates":[-99.12169560425865,19.402891572700973,0]},"properties":{"SISTEMA":"STC Metro","NOMBRE":"Santa Anita","LINEA":"04","EST":"01","CVE_EST":"STC0401","CVE_EOD17":"05094","TIPO":"Terminal / Transbordo","ALCALDIAS":"Iztacalco","AÑO":1982}},
{"type":"Feature","geometry":{"type":"Point","coordinates":[-99.12174358812516,19.41091506041839,0]},"properties":{"SISTEMA":"STC Metro","NOMBRE":"Jamaica","LINEA":"04","EST":"02","CVE_EST":"STC0402","CVE_EOD17":"05091","TIPO":"Transbordo","ALCALDIAS":"Venustiano Carranza","AÑO":1982}},
{"type":"Feature","geometry":{"type":"Point","coordinates":[-99.12053345294457,19.421590266885172,0]},"properties":{"SISTEMA":"STC Metro","NOMBRE":"Fray Servando","LINEA":"04","EST":"03","CVE_EST":"STC0403","CVE_EOD17":"05090","TIPO":"Intermedia","ALCALDIAS":"Venustiano Carranza","AÑO":1982}},
{"type":"Feature","geometry":{"type":"Point","coordinates":[-99.11942628579929,19.428764223711585,0]},"properties":{"SISTEMA":"STC Metro","NOMBRE":"Candelaria","LINEA":"04","EST":"04","CVE_EST":"STC0404","CVE_EOD17":"05088","TIPO":"Transbordo","ALCALDIAS":"Venustiano Carranza","AÑO":1981}},
{"type":"Feature","geometry":{"type":"Point","coordinates":[-99.11815212250657,19.439664164892267,0]},"properties":{"SISTEMA":"STC Metro","NOMBRE":"Morelos","LINEA":"04","EST":"05","CVE_EST":"STC0405","CVE_EOD17":"05093","TIPO":"Transbordo","ALCALDIAS":"Venustiano Carranza","AÑO":1981}},
{"type":"Feature","geometry":{"type":"Point","coordinates":[-99.11613305076399,19.448945007975038,0]},"properties":{"SISTEMA":"STC Metro","NOMBRE":"Canal del Norte","LINEA":"04","EST":"06","CVE_EST":"STC0406","CVE_EOD17":"05087","TIPO":"Intermedia","ALCALDIAS":"Venustiano Carranza","AÑO":1981}},
{"type":"Feature","geometry":{"type":"Point","coordinates":[-99.11390384847114,19.45801819921654,0]},"properties":{"SISTEMA":"STC Metro","NOMBRE":"Consulado","LINEA":"04","EST":"07","CVE_EST":"STC0407","CVE_EOD17":"05089","TIPO":"Transbordo","ALCALDIAS":"Gustavo A. Madero","AÑO":1981}},
{"type":"Feature","geometry":{"type":"Point","coordinates":[-99.11197677850316,19.46463120134616,0]},"properties":{"SISTEMA":"STC Metro","NOMBRE":"Bondojito","LINEA":"04","EST":"08","CVE_EST":"STC0408","CVE_EOD17":"05086","TIPO":"Intermedia","ALCALDIAS":"Gustavo A. Madero","AÑO":1981}},
{"type":"Feature","geometry":{"type":"Point","coordinates":[-99.10801223861532,19.4743583148983,0]},"properties":{"SISTEMA":"STC Metro","NOMBRE":"Talismán","LINEA":"04","EST":"09","CVE_EST":"STC0409","CVE_EOD17":"05095","TIPO":"Intermedia","ALCALDIAS":"Gustavo A. Madero","AÑO":1981}},
{"type":"Feature","geometry":{"type":"Point","coordinates":[-99.10436947745445,19.4850441446716,0]},"properties":{"SISTEMA":"STC Metro","NOMBRE":"Martín Carrera","LINEA":"04","EST":"10","CVE_EST":"STC0410","CVE_EOD17":"05092","TIPO":"Terminal / Transbordo","ALCALDIAS":"Gustavo A. Madero","AÑO":1981}},
{"type":"Feature","geometry":{"type":"Point","coordinates":[-99.14920599260093,19.50067869865116,0]},"properties":{"SISTEMA":"STC Metro","NOMBRE":"Politécnico","LINEA":"05","EST":"01","CVE_EST":"STC0501","CVE_EOD17":"05106","TIPO":"Terminal","ALCALDIAS":"Gustavo A. Madero","AÑO":1982}},
{"type":"Feature","geometry":{"type":"Point","coordinates":[-99.14470974913316,19.489339309334294,0]},"properties":{"SISTEMA":"STC Metro","NOMBRE":"Instituto del Petróleo","LINEA":"05","EST":"02","CVE_EST":"STC0502","CVE_EOD17":"05101","TIPO":"Transbordo","ALCALDIAS":"Gustavo A. Madero","AÑO":1982}},
{"type":"Feature","geometry":{"type":"Point","coordinates":[-99.14065073858234,19.479070895908745,0]},"properties":{"SISTEMA":"STC Metro","NOMBRE":"Autobuses del Norte","LINEA":"05","EST":"03","CVE_EST":"STC0503","CVE_EOD17":"05097","TIPO":"Intermedia","ALCALDIAS":"Gustavo A. Madero","AÑO":1982}},
{"type":"Feature","geometry":{"type":"Point","coordinates":[-99.13651565050566,19.469666470585786,0]},"properties":{"SISTEMA":"STC Metro","NOMBRE":"La Raza","LINEA":"05","EST":"04","CVE_EST":"STC0504","CVE_EOD17":"05102","TIPO":"Transbordo","ALCALDIAS":"Gustavo A. Madero","AÑO":1982}},
{"type":"Feature","geometry":{"type":"Point","coordinates":[-99.1302395703195,19.463112195663303,0]},"properties":{"SISTEMA":"STC Metro","NOMBRE":"Misterios","LINEA":"05","EST":"05","CVE_EST":"STC0505","CVE_EOD17":"05103","TIPO":"Intermedia","ALCALDIAS":"Gustavo A. Madero / Cuauhtémoc","AÑO":1982}},
{"type":"Feature","geometry":{"type":"Point","coordinates":[-99.11949099066608,19.458872139807024,0]},"properties":{"SISTEMA":"STC Metro","NOMBRE":"Valle Gómez","LINEA":"05","EST":"06","CVE_EST":"STC0506","CVE_EOD17":"05108","TIPO":"Intermedia","ALCALDIAS":"Gustavo A. Madero / Venustiano Carranza","AÑO":1982}},
{"type":"Feature","geometry":{"type":"Point","coordinates":[-99.11353623147821,19.455135874992198,0]},"properties":{"SISTEMA":"STC Metro","NOMBRE":"Consulado","LINEA":"05","EST":"07","CVE_EST":"STC0507","CVE_EOD17":"05098","TIPO":"Transbordo","ALCALDIAS":"Gustavo A. Madero / Venustiano Carranza","AÑO":1981}},
{"type":"Feature","geometry":{"type":"Point","coordinates":[-99.10529969848143,19.45139751377978,0]},"properties":{"SISTEMA":"STC Metro","NOMBRE":"Eduardo Molina","LINEA":"05","EST":"08","CVE_EST":"STC0508","CVE_EOD17":"05099","TIPO":"Intermedia","ALCALDIAS":"Gustavo A. Madero / Venustiano Carranza","AÑO":1981}},
{"type":"Feature","geometry":{"type":"Point","coordinates":[-99.09620515376837,19.451257588432135,0]},"properties":{"SISTEMA":"STC Metro","NOMBRE":"Aragón","LINEA":"05","EST":"09","CVE_EST":"STC0509","CVE_EOD17":"05096","TIPO":"Intermedia","ALCALDIAS":"Gustavo A. Madero / Venustiano Carranza","AÑO":1981}},
{"type":"Feature","geometry":{"type":"Point","coordinates":[-99.08687292405605,19.44502048612666,0]},"properties":{"SISTEMA":"STC Metro","NOMBRE":"Oceanía","LINEA":"05","EST":"10","CVE_EST":"STC0510","CVE_EOD17":"05104","TIPO":"Transbordo","ALCALDIAS":"Venustiano Carranza","AÑO":1981}},
{"type":"Feature","geometry":{"type":"Point","coordinates":[-99.08807623735903,19.434265101782927,0]},"properties":{"SISTEMA":"STC Metro","NOMBRE":"Terminal Aérea","LINEA":"05","EST":"11","CVE_EST":"STC0511","CVE_EOD17":"05107","TIPO":"Intermedia","ALCALDIAS":"Venustiano Carranza","AÑO":1981}},
{"type":"Feature","geometry":{"type":"Point","coordinates":[-99.08813377459762,19.42434990786488,0]},"properties":{"SISTEMA":"STC Metro","NOMBRE":"Hangares","LINEA":"05","EST":"12","CVE_EST":"STC0512","CVE_EOD17":"05100","TIPO":"Intermedia","ALCALDIAS":"Venustiano Carranza","AÑO":1981}},
{"type":"Feature","geometry":{"type":"Point","coordinates":[-99.07432880808665,19.41510477347348,0]},"properties":{"SISTEMA":"STC Metro","NOMBRE":"Pantitlán","LINEA":"05","EST":"13","CVE_EST":"STC0513","CVE_EOD17":"05105","TIPO":"Terminal / Transbordo","ALCALDIAS":"Venustiano Carranza","AÑO":1981}},
{"type":"Feature","geometry":{"type":"Point","coordinates":[-99.19976981622266,19.504630143602103,0]},"properties":{"SISTEMA":"STC Metro","NOMBRE":"El Rosario","LINEA":"06","EST":"01","CVE_EST":"STC0601","CVE_EOD17":"05112","TIPO":"Terminal / Transbordo","ALCALDIAS":"Azcapotzalco","AÑO":1983}},
{"type":"Feature","geometry":{"type":"Point","coordinates":[-99.19602298699967,19.494895164082454,0]},"properties":{"SISTEMA":"STC Metro","NOMBRE":"Tezozómoc","LINEA":"06","EST":"02","CVE_EST":"STC0602","CVE_EOD17":"05118","TIPO":"Intermedia","ALCALDIAS":"Azcapotzalco","AÑO":1983}},
{"type":"Feature","geometry":{"type":"Point","coordinates":[-99.18626730878705,19.49090814292121,0]},"properties":{"SISTEMA":"STC Metro","NOMBRE":"UAM Azcapotzalco","LINEA":"06","EST":"03","CVE_EST":"STC0603","CVE_EOD17":"05110","TIPO":"Intermedia","ALCALDIAS":"Azcapotzalco","AÑO":1983}},
{"type":"Feature","geometry":{"type":"Point","coordinates":[-99.17415168259645,19.490673429052162,0]},"properties":{"SISTEMA":"STC Metro","NOMBRE":"Ferrería/Arena Ciudad de México","LINEA":"06","EST":"04","CVE_EST":"STC0604","CVE_EOD17":"05109","TIPO":"Intermedia","ALCALDIAS":"Azcapotzalco","AÑO":1983}},
{"type":"Feature","geometry":{"type":"Point","coordinates":[-99.16299035407454,19.488671413505823,0]},"properties":{"SISTEMA":"STC Metro","NOMBRE":"Norte 45","LINEA":"06","EST":"05","CVE_EST":"STC0605","CVE_EOD17":"05117","TIPO":"Intermedia","ALCALDIAS":"Azcapotzalco","AÑO":1983}},
{"type":"Feature","geometry":{"type":"Point","coordinates":[-99.15600430946392,19.48984778693472,0]},"properties":{"SISTEMA":"STC Metro","NOMBRE":"Vallejo","LINEA":"06","EST":"06","CVE_EST":"STC0606","CVE_EOD17":"05119","TIPO":"Intermedia","ALCALDIAS":"Azcapotzalco","AÑO":1983}},
{"type":"Feature","geometry":{"type":"Point","coordinates":[-99.14812599880902,19.491044231378503,0]},"properties":{"SISTEMA":"STC Metro","NOMBRE":"Instituto del Petróleo","LINEA":"06","EST":"07","CVE_EST":"STC0607","CVE_EOD17":"05113","TIPO":"Transbordo","ALCALDIAS":"Gustavo A. Madero","AÑO":1983}},
{"type":"Feature","geometry":{"type":"Point","coordinates":[-99.135071417918,19.488112987791897,0]},"properties":{"SISTEMA":"STC Metro","NOMBRE":"Lindavista","LINEA":"06","EST":"08","CVE_EST":"STC0608","CVE_EOD17":"05115","TIPO":"Intermedia","ALCALDIAS":"Gustavo A. Madero","AÑO":1986}},
{"type":"Feature","geometry":{"type":"Point","coordinates":[-99.12530365865987,19.483482017273065,0]},"properties":{"SISTEMA":"STC Metro","NOMBRE":"Deportivo 18 de Marzo","LINEA":"06","EST":"09","CVE_EST":"STC0609","CVE_EOD17":"05111","TIPO":"Transbordo","ALCALDIAS":"Gustavo A. Madero","AÑO":1986}},
{"type":"Feature","geometry":{"type":"Point","coordinates":[-99.11836926186176,19.481735808267246,0]},"properties":{"SISTEMA":"STC Metro","NOMBRE":"La Villa/Basílica","LINEA":"06","EST":"10","CVE_EST":"STC0610","CVE_EOD17":"05114","TIPO":"Intermedia","ALCALDIAS":"Gustavo A. Madero","AÑO":1986}},
{"type":"Feature","geometry":{"type":"Point","coordinates":[-99.10747531268115,19.482938821534876,0]},"properties":{"SISTEMA":"STC Metro","NOMBRE":"Martín Carrera","LINEA":"06","EST":"11","CVE_EST":"STC0611","CVE_EOD17":"05116","TIPO":"Terminal / Transbordo","ALCALDIAS":"Gustavo A. Madero","AÑO":1986}},
{"type":"Feature","geometry":{"type":"Point","coordinates":[-99.20011586528997,19.50473787443692,0]},"properties":{"SISTEMA":"STC Metro","NOMBRE":"El Rosario","LINEA":"07","EST":"01","CVE_EST":"STC0701","CVE_EOD17":"05125","TIPO":"Terminal / Transbordo","ALCALDIAS":"Azcapotzalco","AÑO":1988}},
{"type":"Feature","geometry":{"type":"Point","coordinates":[-99.19535232730325,19.49064014278564,0]},"properties":{"SISTEMA":"STC Metro","NOMBRE":"Aquiles Serdán","LINEA":"07","EST":"02","CVE_EST":"STC0702","CVE_EOD17":"05120","TIPO":"Intermedia","ALCALDIAS":"Azcapotzalco","AÑO":1988}},
{"type":"Feature","geometry":{"type":"Point","coordinates":[-99.19003757146507,19.479111542683896,0]},"properties":{"SISTEMA":"STC Metro","NOMBRE":"Camarones","LINEA":"07","EST":"03","CVE_EST":"STC0703","CVE_EOD17":"05123","TIPO":"Intermedia","ALCALDIAS":"Azcapotzalco","AÑO":1988}},
{"type":"Feature","geometry":{"type":"Point","coordinates":[-99.1905055272923,19.46947289434234,0]},"properties":{"SISTEMA":"STC Metro","NOMBRE":"Refinería","LINEA":"07","EST":"04","CVE_EST":"STC0704","CVE_EOD17":"05128","TIPO":"Intermedia","ALCALDIAS":"Azcapotzalco","AÑO":1988}},
{"type":"Feature","geometry":{"type":"Point","coordinates":[-99.18716900417594,19.45823475875799,0]},"properties":{"SISTEMA":"STC Metro","NOMBRE":"Tacuba","LINEA":"07","EST":"05","CVE_EST":"STC0705","CVE_EOD17":"05132","TIPO":"Transbordo","ALCALDIAS":"Miguel Hidalgo","AÑO":1984}},
{"type":"Feature","geometry":{"type":"Point","coordinates":[-99.19176696408843,19.44500753968244,0]},"properties":{"SISTEMA":"STC Metro","NOMBRE":"San Joaquín","LINEA":"07","EST":"06","CVE_EST":"STC0706","CVE_EOD17":"05130","TIPO":"Intermedia","ALCALDIAS":"Miguel Hidalgo","AÑO":1984}},
{"type":"Feature","geometry":{"type":"Point","coordinates":[-99.1909251080933,19.433553135623136,0]},"properties":{"SISTEMA":"STC Metro","NOMBRE":"Polanco","LINEA":"07","EST":"07","CVE_EST":"STC0707","CVE_EOD17":"05127","TIPO":"Intermedia","ALCALDIAS":"Miguel Hidalgo","AÑO":1984}},
{"type":"Feature","geometry":{"type":"Point","coordinates":[-99.1920289044083,19.42576382554425,0]},"properties":{"SISTEMA":"STC Metro","NOMBRE":"Auditorio","LINEA":"07","EST":"08","CVE_EST":"STC0708","CVE_EOD17":"05121","TIPO":"Intermedia","ALCALDIAS":"Miguel Hidalgo","AÑO":1984}},
{"type":"Feature","geometry":{"type":"Point","coordinates":[-99.19135185542875,19.411770866194253,0]},"properties":{"SISTEMA":"STC Metro","NOMBRE":"Constituyentes","LINEA":"07","EST":"09","CVE_EST":"STC0709","CVE_EOD17":"05124","TIPO":"Intermedia","ALCALDIAS":"Miguel Hidalgo","AÑO":1985}},
{"type":"Feature","geometry":{"type":"Point","coordinates":[-99.18675445901168,19.40219021827544,0]},"properties":{"SISTEMA":"STC Metro","NOMBRE":"Tacubaya","LINEA":"07","EST":"10","CVE_EST":"STC0710","CVE_EOD17":"05133","TIPO":"Transbordo","ALCALDIAS":"Miguel Hidalgo","AÑO":1985}},
{"type":"Feature","geometry":{"type":"Point","coordinates":[-99.1858059348452,19.39149177284933,0]},"properties":{"SISTEMA":"STC Metro","NOMBRE":"San Pedro de Los Pinos","LINEA":"07","EST":"11","CVE_EST":"STC0711","CVE_EOD17":"05131","TIPO":"Intermedia","ALCALDIAS":"Benito Juárez","AÑO":1985}},
{"type":"Feature","geometry":{"type":"Point","coordinates":[-99.18661355277949,19.38433767025257,0]},"properties":{"SISTEMA":"STC Metro","NOMBRE":"San Antonio","LINEA":"07","EST":"12","CVE_EST":"STC0712","CVE_EOD17":"05129","TIPO":"Intermedia","ALCALDIAS":"Benito Juárez","AÑO":1985}},
{"type":"Feature","geometry":{"type":"Point","coordinates":[-99.18758241553665,19.37625650166226,0]},"properties":{"SISTEMA":"STC Metro","NOMBRE":"Mixcoac","LINEA":"07","EST":"13","CVE_EST":"STC0713","CVE_EOD17":"05126","TIPO":"Transbordo","ALCALDIAS":"Benito Juárez","AÑO":1985}},
{"type":"Feature","geometry":{"type":"Point","coordinates":[-99.18926370689458,19.361501563286584,0]},"properties":{"SISTEMA":"STC Metro","NOMBRE":"Barranca del Muerto","LINEA":"07","EST":"14","CVE_EST":"STC0714","CVE_EOD17":"05122","TIPO":"Terminal","ALCALDIAS":"Álvaro Obregón","AÑO":1985}},
{"type":"Feature","geometry":{"type":"Point","coordinates":[-99.13900441274583,19.444001288500854,0]},"properties":{"SISTEMA":"STC Metro","NOMBRE":"Garibaldi/Lagunilla","LINEA":"08","EST":"01","CVE_EST":"STC0801","CVE_EOD17":"05144","TIPO":"Terminal / Transbordo","ALCALDIAS":"Cuauhtémoc","AÑO":1994}},
{"type":"Feature","geometry":{"type":"Point","coordinates":[-99.14042072784983,19.43701291221674,0]},"properties":{"SISTEMA":"STC Metro","NOMBRE":"Bellas Artes","LINEA":"08","EST":"02","CVE_EST":"STC0802","CVE_EOD17":"05137","TIPO":"Transbordo","ALCALDIAS":"Cuauhtémoc","AÑO":1994}},
{"type":"Feature","geometry":{"type":"Point","coordinates":[-99.14125061054364,19.431580449036026,0]},"properties":{"SISTEMA":"STC Metro","NOMBRE":"San Juan de Letrán","LINEA":"08","EST":"03","CVE_EST":"STC0803","CVE_EOD17":"05150","TIPO":"Intermedia","ALCALDIAS":"Cuauhtémoc","AÑO":1994}},
{"type":"Feature","geometry":{"type":"Point","coordinates":[-99.14185174647427,19.427718297697947,0]},"properties":{"SISTEMA":"STC Metro","NOMBRE":"Salto del Agua","LINEA":"08","EST":"04","CVE_EST":"STC0804","CVE_EOD17":"05149","TIPO":"Transbordo","ALCALDIAS":"Cuauhtémoc","AÑO":1994}},
{"type":"Feature","geometry":{"type":"Point","coordinates":[-99.14318940867469,19.421545611577116,0]},"properties":{"SISTEMA":"STC Metro","NOMBRE":"Doctores","LINEA":"08","EST":"05","CVE_EST":"STC0805","CVE_EOD17":"05142","TIPO":"Intermedia","ALCALDIAS":"Cuauhtémoc","AÑO":1994}},
{"type":"Feature","geometry":{"type":"Point","coordinates":[-99.14403796372382,19.413240376209362,0]},"properties":{"SISTEMA":"STC Metro","NOMBRE":"Obrera","LINEA":"08","EST":"06","CVE_EST":"STC0806","CVE_EOD17":"05148","TIPO":"Intermedia","ALCALDIAS":"Cuauhtémoc","AÑO":1994}},
{"type":"Feature","geometry":{"type":"Point","coordinates":[-99.13375133526755,19.410207491075585,0]},"properties":{"SISTEMA":"STC Metro","NOMBRE":"Chabacano","LINEA":"08","EST":"07","CVE_EST":"STC0807","CVE_EOD17":"05139","TIPO":"Transbordo","ALCALDIAS":"Cuauhtémoc","AÑO":1994}},
{"type":"Feature","geometry":{"type":"Point","coordinates":[-99.1262690624544,19.406709434404345,0]},"properties":{"SISTEMA":"STC Metro","NOMBRE":"La Viga","LINEA":"08","EST":"08","CVE_EST":"STC0808","CVE_EOD17":"05147","TIPO":"Intermedia","ALCALDIAS":"Cuauhtémoc / Venustiano Carranza","AÑO":1994}},
{"type":"Feature","geometry":{"type":"Point","coordinates":[-99.12065723966121,19.404123434315892,0]},"properties":{"SISTEMA":"STC Metro","NOMBRE":"Santa Anita","LINEA":"08","EST":"09","CVE_EST":"STC0809","CVE_EOD17":"05151","TIPO":"Transbordo","ALCALDIAS":"Iztacalco","AÑO":1994}},
{"type":"Feature","geometry":{"type":"Point","coordinates":[-99.11348043121852,19.398302895714913,0]},"properties":{"SISTEMA":"STC Metro","NOMBRE":"Coyuya","LINEA":"08","EST":"10","CVE_EST":"STC0810","CVE_EOD17":"05141","TIPO":"Intermedia","ALCALDIAS":"Iztacalco","AÑO":1994}},
{"type":"Feature","geometry":{"type":"Point","coordinates":[-99.11211173088554,19.38828875746519,0]},"properties":{"SISTEMA":"STC Metro","NOMBRE":"Iztacalco","LINEA":"08","EST":"11","CVE_EST":"STC0811","CVE_EOD17":"05145","TIPO":"Intermedia","ALCALDIAS":"Iztacalco","AÑO":1994}},
{"type":"Feature","geometry":{"type":"Point","coordinates":[-99.10949014642031,19.3790998138262,0]},"properties":{"SISTEMA":"STC Metro","NOMBRE":"Apatlaco","LINEA":"08","EST":"12","CVE_EST":"STC0812","CVE_EOD17":"05135","TIPO":"Intermedia","ALCALDIAS":"Iztapalapa","AÑO":1994}},
{"type":"Feature","geometry":{"type":"Point","coordinates":[-99.1077035934306,19.37321141061217,0]},"properties":{"SISTEMA":"STC Metro","NOMBRE":"Aculco","LINEA":"08","EST":"13","CVE_EST":"STC0813","CVE_EOD17":"05134","TIPO":"Intermedia","ALCALDIAS":"Iztapalapa","AÑO":1994}},
{"type":"Feature","geometry":{"type":"Point","coordinates":[-99.10948498429173,19.3648364116397,0]},"properties":{"SISTEMA":"STC Metro","NOMBRE":"Escuadrón 201","LINEA":"08","EST":"14","CVE_EST":"STC0814","CVE_EOD17":"05143","TIPO":"Intermedia","ALCALDIAS":"Iztapalapa","AÑO":1994}},
{"type":"Feature","geometry":{"type":"Point","coordinates":[-99.10130942995006,19.35608448367419,0]},"properties":{"SISTEMA":"STC Metro","NOMBRE":"Atlalilco","LINEA":"08","EST":"15","CVE_EST":"STC0815","CVE_EOD17":"05136","TIPO":"Transbordo","ALCALDIAS":"Iztapalapa","AÑO":1994}},
{"type":"Feature","geometry":{"type":"Point","coordinates":[-99.09344907670477,19.3578249372119,0]},"properties":{"SISTEMA":"STC Metro","NOMBRE":"Iztapalapa","LINEA":"08","EST":"16","CVE_EST":"STC0816","CVE_EOD17":"05146","TIPO":"Intermedia","ALCALDIAS":"Iztapalapa","AÑO":1994}},
{"type":"Feature","geometry":{"type":"Point","coordinates":[-99.08561607648716,19.356047872500543,0]},"properties":{"SISTEMA":"STC Metro","NOMBRE":"Cerro de la Estrella","LINEA":"08","EST":"17","CVE_EST":"STC0817","CVE_EOD17":"05138","TIPO":"Intermedia","ALCALDIAS":"Iztapalapa","AÑO":1994}},
{"type":"Feature","geometry":{"type":"Point","coordinates":[-99.07481741890497,19.351056166857287,0]},"properties":{"SISTEMA":"STC Metro","NOMBRE":"UAM-I","LINEA":"08","EST":"18","CVE_EST":"STC0818","CVE_EOD17":"05152","TIPO":"Intermedia","ALCALDIAS":"Iztapalapa","AÑO":1994}},
{"type":"Feature","geometry":{"type":"Point","coordinates":[-99.06379884994618,19.345968405928243,0]},"properties":{"SISTEMA":"STC Metro","NOMBRE":"Constitución de 1917","LINEA":"08","EST":"19","CVE_EST":"STC0819","CVE_EOD17":"05140","TIPO":"Terminal","ALCALDIAS":"Iztapalapa","AÑO":1994}},
{"type":"Feature","geometry":{"type":"Point","coordinates":[-99.07220534490074,19.415351168915805,0]},"properties":{"SISTEMA":"STC Metro","NOMBRE":"Pantitlán","LINEA":"09","EST":"01","CVE_EST":"STC0901","CVE_EOD17":"05160","TIPO":"Terminal / Transbordo","ALCALDIAS":"Venustiano Carranza / Iztacalco","AÑO":1987}},
{"type":"Feature","geometry":{"type":"Point","coordinates":[-99.08238587967575,19.40719214298364,0]},"properties":{"SISTEMA":"STC Metro","NOMBRE":"Puebla","LINEA":"09","EST":"02","CVE_EST":"STC0902","CVE_EOD17":"05162","TIPO":"Intermedia","ALCALDIAS":"Venustiano Carranza / Iztacalco","AÑO":1987}},
{"type":"Feature","geometry":{"type":"Point","coordinates":[-99.0912519463776,19.408433982240478,0]},"properties":{"SISTEMA":"STC Metro","NOMBRE":"Ciudad Deportiva","LINEA":"09","EST":"03","CVE_EST":"STC0903","CVE_EOD17":"05156","TIPO":"Intermedia","ALCALDIAS":"Venustiano Carranza / Iztacalco","AÑO":1987}},
{"type":"Feature","geometry":{"type":"Point","coordinates":[-99.10315771222376,19.408539286354042,0]},"properties":{"SISTEMA":"STC Metro","NOMBRE":"Velódromo","LINEA":"09","EST":"04","CVE_EST":"STC0904","CVE_EOD17":"05164","TIPO":"Intermedia","ALCALDIAS":"Venustiano Carranza","AÑO":1987}},
{"type":"Feature","geometry":{"type":"Point","coordinates":[-99.11296847676732,19.4083714401572,0]},"properties":{"SISTEMA":"STC Metro","NOMBRE":"Mixhiuca","LINEA":"09","EST":"05","CVE_EST":"STC0905","CVE_EOD17":"05159","TIPO":"Intermedia","ALCALDIAS":"Venustiano Carranza","AÑO":1987}},
{"type":"Feature","geometry":{"type":"Point","coordinates":[-99.12234976018911,19.40910312787644,0]},"properties":{"SISTEMA":"STC Metro","NOMBRE":"Jamaica","LINEA":"09","EST":"06","CVE_EST":"STC0906","CVE_EOD17":"05157","TIPO":"Transbordo","ALCALDIAS":"Venustiano Carranza","AÑO":1987}},
{"type":"Feature","geometry":{"type":"Point","coordinates":[-99.13397299201031,19.40851453448194,0]},"properties":{"SISTEMA":"STC Metro","NOMBRE":"Chabacano","LINEA":"09","EST":"07","CVE_EST":"STC0907","CVE_EOD17":"05154","TIPO":"Transbordo","ALCALDIAS":"Cuauhtémoc","AÑO":1987}},
{"type":"Feature","geometry":{"type":"Point","coordinates":[-99.14462826288435,19.407218273838726,0]},"properties":{"SISTEMA":"STC Metro","NOMBRE":"Lázaro Cárdenas","LINEA":"09","EST":"08","CVE_EST":"STC0908","CVE_EOD17":"05158","TIPO":"Intermedia","ALCALDIAS":"Cuauhtémoc","AÑO":1987}},
{"type":"Feature","geometry":{"type":"Point","coordinates":[-99.15602793921477,19.406561353277546,0]},"properties":{"SISTEMA":"STC Metro","NOMBRE":"Centro Médico","LINEA":"09","EST":"09","CVE_EST":"STC0909","CVE_EOD17":"05153","TIPO":"Transbordo","ALCALDIAS":"Cuauhtémoc","AÑO":1987}},
{"type":"Feature","geometry":{"type":"Point","coordinates":[-99.16851936424604,19.405929858827395,0]},"properties":{"SISTEMA":"STC Metro","NOMBRE":"Chilpancingo","LINEA":"09","EST":"10","CVE_EST":"STC0910","CVE_EOD17":"05155","TIPO":"Intermedia","ALCALDIAS":"Cuauhtémoc","AÑO":1988}},
{"type":"Feature","geometry":{"type":"Point","coordinates":[-99.1789225975409,19.40610899290181,0]},"properties":{"SISTEMA":"STC Metro","NOMBRE":"Patriotismo","LINEA":"09","EST":"11","CVE_EST":"STC0911","CVE_EOD17":"05161","TIPO":"Intermedia","ALCALDIAS":"Cuauhtémoc / Miguel Hidalgo","AÑO":1988}},
{"type":"Feature","geometry":{"type":"Point","coordinates":[-99.18776109100934,19.401460579904057,0]},"properties":{"SISTEMA":"STC Metro","NOMBRE":"Tacubaya","LINEA":"09","EST":"12","CVE_EST":"STC0912","CVE_EOD17":"05163","TIPO":"Terminal / Transbordo","ALCALDIAS":"Miguel Hidalgo","AÑO":1988}},
{"type":"Feature","geometry":{"type":"Point","coordinates":[-99.0141983243777,19.286022277290176,0]},"properties":{"SISTEMA":"STC Metro","NOMBRE":"Tláhuac","LINEA":"12","EST":"01","CVE_EST":"STC1201","CVE_EOD17":"05037","TIPO":"Terminal","ALCALDIAS":"Tláhuac","AÑO":2012}},
{"type":"Feature","geometry":{"type":"Point","coordinates":[-99.02403074663107,19.294353379107935,0]},"properties":{"SISTEMA":"STC Metro","NOMBRE":"Tlaltenco","LINEA":"12","EST":"02","CVE_EST":"STC1202","CVE_EOD17":"05038","TIPO":"Intermedia","ALCALDIAS":"Tláhuac","AÑO":2012}},
{"type":"Feature","geometry":{"type":"Point","coordinates":[-99.03430689003962,19.296655586515058,0]},"properties":{"SISTEMA":"STC Metro","NOMBRE":"Zapotitlán","LINEA":"12","EST":"03","CVE_EST":"STC1203","CVE_EOD17":"05040","TIPO":"Intermedia","ALCALDIAS":"Tláhuac","AÑO":2012}},
{"type":"Feature","geometry":{"type":"Point","coordinates":[-99.04599286885365,19.299957304889258,0]},"properties":{"SISTEMA":"STC Metro","NOMBRE":"Nopalera","LINEA":"12","EST":"04","CVE_EST":"STC1204","CVE_EOD17":"05031","TIPO":"Intermedia","ALCALDIAS":"Tláhuac","AÑO":2012}},
{"type":"Feature","geometry":{"type":"Point","coordinates":[-99.05951149501792,19.304321996002184,0]},"properties":{"SISTEMA":"STC Metro","NOMBRE":"Olivos","LINEA":"12","EST":"05","CVE_EST":"STC1205","CVE_EOD17":"05032","TIPO":"Intermedia","ALCALDIAS":"Tláhuac","AÑO":2012}},
{"type":"Feature","geometry":{"type":"Point","coordinates":[-99.06527026370269,19.306308825509696,0]},"properties":{"SISTEMA":"STC Metro","NOMBRE":"Tezonco","LINEA":"12","EST":"06","CVE_EST":"STC1206","CVE_EOD17":"05036","TIPO":"Intermedia","ALCALDIAS":"Iztapalapa","AÑO":2012}},
{"type":"Feature","geometry":{"type":"Point","coordinates":[-99.07450575078416,19.317611568465104,0]},"properties":{"SISTEMA":"STC Metro","NOMBRE":"Periferico Oriente","LINEA":"12","EST":"07","CVE_EST":"STC1207","CVE_EOD17":"05034","TIPO":"Intermedia","ALCALDIAS":"Iztapalapa","AÑO":2012}},
{"type":"Feature","geometry":{"type":"Point","coordinates":[-99.08587286436709,19.320471151871725,0]},"properties":{"SISTEMA":"STC Metro","NOMBRE":"Calle 11","LINEA":"12","EST":"08","CVE_EST":"STC1208","CVE_EOD17":"05022","TIPO":"Intermedia","ALCALDIAS":"Iztapalapa","AÑO":2012}},
{"type":"Feature","geometry":{"type":"Point","coordinates":[-99.09575048151491,19.322148856344057,0]},"properties":{"SISTEMA":"STC Metro","NOMBRE":"Lomas Estrella","LINEA":"12","EST":"09","CVE_EST":"STC1209","CVE_EOD17":"05028","TIPO":"Intermedia","ALCALDIAS":"Iztapalapa","AÑO":2012}},
{"type":"Feature","geometry":{"type":"Point","coordinates":[-99.1045158609058,19.32814547952075,0]},"properties":{"SISTEMA":"STC Metro","NOMBRE":"San Andres Tomatlán","LINEA":"12","EST":"10","CVE_EST":"STC1210","CVE_EOD17":"05035","TIPO":"Intermedia","ALCALDIAS":"Iztapalapa","AÑO":2012}},
{"type":"Feature","geometry":{"type":"Point","coordinates":[-99.10895874517293,19.336845611079582,0]},"properties":{"SISTEMA":"STC Metro","NOMBRE":"Culhuacán","LINEA":"12","EST":"11","CVE_EST":"STC1211","CVE_EOD17":"05023","TIPO":"Intermedia","ALCALDIAS":"Iztapalapa","AÑO":2012}},
{"type":"Feature","geometry":{"type":"Point","coordinates":[-99.10624316535984,19.352754172814933,0]},"properties":{"SISTEMA":"STC Metro","NOMBRE":"Atlalilco","LINEA":"12","EST":"12","CVE_EST":"STC1212","CVE_EOD17":"05021","TIPO":"Transbordo","ALCALDIAS":"Iztapalapa","AÑO":2012}},
{"type":"Feature","geometry":{"type":"Point","coordinates":[-99.1231432322264,19.35776253608585,0]},"properties":{"SISTEMA":"STC Metro","NOMBRE":"Mexicaltzingo","LINEA":"12","EST":"13","CVE_EST":"STC1213","CVE_EOD17":"05029","TIPO":"Intermedia","ALCALDIAS":"Iztapalapa / Coyoacán","AÑO":2012}},
{"type":"Feature","geometry":{"type":"Point","coordinates":[-99.14163136305437,19.359823503023833,0]},"properties":{"SISTEMA":"STC Metro","NOMBRE":"Ermita","LINEA":"12","EST":"14","CVE_EST":"STC1214","CVE_EOD17":"05025","TIPO":"Transbordo","ALCALDIAS":"Benito Juárez","AÑO":2012}},
{"type":"Feature","geometry":{"type":"Point","coordinates":[-99.15142336147862,19.361341237938568,0]},"properties":{"SISTEMA":"STC Metro","NOMBRE":"Eje Central","LINEA":"12","EST":"15","CVE_EST":"STC1215","CVE_EOD17":"05024","TIPO":"Intermedia","ALCALDIAS":"Benito Juárez","AÑO":2012}},
{"type":"Feature","geometry":{"type":"Point","coordinates":[-99.15871771897177,19.37065883497745,0]},"properties":{"SISTEMA":"STC Metro","NOMBRE":"Parque de los Venados","LINEA":"12","EST":"16","CVE_EST":"STC1216","CVE_EOD17":"05033","TIPO":"Intermedia","ALCALDIAS":"Benito Juárez","AÑO":2012}},
{"type":"Feature","geometry":{"type":"Point","coordinates":[-99.165599315594,19.37084530155701,0]},"properties":{"SISTEMA":"STC Metro","NOMBRE":"Zapata","LINEA":"12","EST":"17","CVE_EST":"STC1217","CVE_EOD17":"05039","TIPO":"Transbordo","ALCALDIAS":"Benito Juárez","AÑO":2012}},
{"type":"Feature","geometry":{"type":"Point","coordinates":[-99.17088446276829,19.37201337695184,0]},"properties":{"SISTEMA":"STC Metro","NOMBRE":"Hospital 20 de Noviembre","LINEA":"12","EST":"18","CVE_EST":"STC1218","CVE_EOD17":"05026","TIPO":"Intermedia","ALCALDIAS":"Benito Juárez","AÑO":2012}},
{"type":"Feature","geometry":{"type":"Point","coordinates":[-99.17825012925253,19.373553470227108,0]},"properties":{"SISTEMA":"STC Metro","NOMBRE":"Insurgentes Sur","LINEA":"12","EST":"19","CVE_EST":"STC1219","CVE_EOD17":"05027","TIPO":"Intermedia","ALCALDIAS":"Benito Juárez","AÑO":2012}},
{"type":"Feature","geometry":{"type":"Point","coordinates":[-99.18673050109385,19.37569882343627,0]},"properties":{"SISTEMA":"STC Metro","NOMBRE":"Mixcoac","LINEA":"12","EST":"20","CVE_EST":"STC1220","CVE_EOD17":"05030","TIPO":"Terminal / Transbordo","ALCALDIAS":"Benito Juárez","AÑO":2012}},
{"type":"Feature","geometry":{"type":"Point","coordinates":[-99.07192293715731,19.415297524541934,0]},"properties":{"SISTEMA":"STC Metro","NOMBRE":"Pantitlán","LINEA":"A","EST":"01","CVE_EST":"STCLA01","CVE_EOD17":"05171","TIPO":"Terminal / Transbordo","ALCALDIAS":"Iztacalco","AÑO":1991}},
{"type":"Feature","geometry":{"type":"Point","coordinates":[-99.06956646430945,19.404618895931353,0]},"properties":{"SISTEMA":"STC Metro","NOMBRE":"Agrícola Oriental","LINEA":"A","EST":"02","CVE_EST":"STCLA02","CVE_EOD17":"05166","TIPO":"Intermedia","ALCALDIAS":"Iztacalco","AÑO":1991}},
{"type":"Feature","geometry":{"type":"Point","coordinates":[-99.05942280066026,19.39876293119974,0]},"properties":{"SISTEMA":"STC Metro","NOMBRE":"Canal de San Juan","LINEA":"A","EST":"03","CVE_EST":"STCLA03","CVE_EOD17":"05167","TIPO":"Intermedia","ALCALDIAS":"Iztacalco","AÑO":1991}},
{"type":"Feature","geometry":{"type":"Point","coordinates":[-99.04632939735716,19.391276494960067,0]},"properties":{"SISTEMA":"STC Metro","NOMBRE":"Tepalcates","LINEA":"A","EST":"04","CVE_EST":"STCLA04","CVE_EOD17":"05174","TIPO":"Intermedia","ALCALDIAS":"Iztapalapa","AÑO":1991}},
{"type":"Feature","geometry":{"type":"Point","coordinates":[-99.03565960069986,19.385153887463556,0]},"properties":{"SISTEMA":"STC Metro","NOMBRE":"Guelatao","LINEA":"A","EST":"05","CVE_EST":"STCLA05","CVE_EOD17":"05168","TIPO":"Intermedia","ALCALDIAS":"Iztapalapa","AÑO":1991}},
{"type":"Feature","geometry":{"type":"Point","coordinates":[-99.01705483641234,19.373305051789014,0]},"properties":{"SISTEMA":"STC Metro","NOMBRE":"Peñón Viejo","LINEA":"A","EST":"06","CVE_EST":"STCLA06","CVE_EOD17":"05172","TIPO":"Intermedia","ALCALDIAS":"Iztapalapa","AÑO":1991}},
{"type":"Feature","geometry":{"type":"Point","coordinates":[-99.00567271685955,19.364717390396216,0]},"properties":{"SISTEMA":"STC Metro","NOMBRE":"Acatitla","LINEA":"A","EST":"07","CVE_EST":"STCLA07","CVE_EOD17":"05165","TIPO":"Intermedia","ALCALDIAS":"Iztapalapa","AÑO":1991}},
{"type":"Feature","geometry":{"type":"Point","coordinates":[-98.99517832323626,19.36030504737167,0]},"properties":{"SISTEMA":"STC Metro","NOMBRE":"Santa Marta","LINEA":"A","EST":"08","CVE_EST":"STCLA08","CVE_EOD17":"05173","TIPO":"Intermedia","ALCALDIAS":"Iztapalapa","AÑO":1991}},
{"type":"Feature","geometry":{"type":"Point","coordinates":[-98.97686678250444,19.35903746198999,0]},"properties":{"SISTEMA":"STC Metro","NOMBRE":"Los Reyes","LINEA":"A","EST":"09","CVE_EST":"STCLA09","CVE_EOD17":"05170","TIPO":"Intermedia","ALCALDIAS":"Estado de México - La Paz","AÑO":1991}},
{"type":"Feature","geometry":{"type":"Point","coordinates":[-98.96093725042675,19.350561572133337,0]},"properties":{"SISTEMA":"STC Metro","NOMBRE":"La Paz","LINEA":"A","EST":"10","CVE_EST":"STCLA10","CVE_EOD17":"05169","TIPO":"Terminal","ALCALDIAS":"Estado de México - La Paz","AÑO":1991}},
{"type":"Feature","geometry":{"type":"Point","coordinates":[-99.15235137742634,19.446185903359645,0]},"properties":{"SISTEMA":"STC Metro","NOMBRE":"Buenavista","LINEA":"B","EST":"01","CVE_EST":"STCLB01","CVE_EOD17":"05176","TIPO":"Terminal","ALCALDIAS":"Cuauhtémoc","AÑO":1999}},
{"type":"Feature","geometry":{"type":"Point","coordinates":[-99.14613872738674,19.44514483254338,0]},"properties":{"SISTEMA":"STC Metro","NOMBRE":"Guerrero","LINEA":"B","EST":"02","CVE_EST":"STCLB02","CVE_EOD17":"05181","TIPO":"Transbordo","ALCALDIAS":"Cuauhtémoc","AÑO":1999}},
{"type":"Feature","geometry":{"type":"Point","coordinates":[-99.13786566485716,19.44388963210198,0]},"properties":{"SISTEMA":"STC Metro","NOMBRE":"Garibaldi/Lagunilla","LINEA":"B","EST":"03","CVE_EST":"STCLB03","CVE_EOD17":"05180","TIPO":"Transbordo","ALCALDIAS":"Cuauhtémoc","AÑO":1999}},
{"type":"Feature","geometry":{"type":"Point","coordinates":[-99.13023042923575,19.443220041827658,0]},"properties":{"SISTEMA":"STC Metro","NOMBRE":"Lagunilla","LINEA":"B","EST":"04","CVE_EST":"STCLB04","CVE_EOD17":"05183","TIPO":"Intermedia","ALCALDIAS":"Cuauhtémoc","AÑO":1999}},
{"type":"Feature","geometry":{"type":"Point","coordinates":[-99.12406744029855,19.442789391295424,0]},"properties":{"SISTEMA":"STC Metro","NOMBRE":"Tepito","LINEA":"B","EST":"05","CVE_EST":"STCLB05","CVE_EOD17":"05194","TIPO":"Intermedia","ALCALDIAS":"Cuauhtémoc","AÑO":1999}},
{"type":"Feature","geometry":{"type":"Point","coordinates":[-99.11956876702453,19.439166627281327,0]},"properties":{"SISTEMA":"STC Metro","NOMBRE":"Morelos","LINEA":"B","EST":"06","CVE_EST":"STCLB06","CVE_EOD17":"05184","TIPO":"Transbordo","ALCALDIAS":"Venustiano Carranza","AÑO":1999}},
{"type":"Feature","geometry":{"type":"Point","coordinates":[-99.11296097266766,19.432370934586487,0]},"properties":{"SISTEMA":"STC Metro","NOMBRE":"San Lázaro","LINEA":"B","EST":"07","CVE_EST":"STCLB07","CVE_EOD17":"05193","TIPO":"Transbordo","ALCALDIAS":"Venustiano Carranza","AÑO":1999}},
{"type":"Feature","geometry":{"type":"Point","coordinates":[-99.10370874117547,19.43656537337327,0]},"properties":{"SISTEMA":"STC Metro","NOMBRE":"Ricardo Flores Magón","LINEA":"B","EST":"08","CVE_EST":"STCLB08","CVE_EOD17":"05190","TIPO":"Intermedia","ALCALDIAS":"Venustiano Carranza","AÑO":1999}},
{"type":"Feature","geometry":{"type":"Point","coordinates":[-99.09420167473102,19.440835354165493,0]},"properties":{"SISTEMA":"STC Metro","NOMBRE":"Romero Rubio","LINEA":"B","EST":"09","CVE_EST":"STCLB09","CVE_EOD17":"05192","TIPO":"Intermedia","ALCALDIAS":"Venustiano Carranza","AÑO":1999}},
{"type":"Feature","geometry":{"type":"Point","coordinates":[-99.08721732565787,19.445694826958526,0]},"properties":{"SISTEMA":"STC Metro","NOMBRE":"Oceanía","LINEA":"B","EST":"10","CVE_EST":"STCLB10","CVE_EOD17":"05187","TIPO":"Transbordo","ALCALDIAS":"Gustavo A. Madero / Venustiano Carranza","AÑO":1999}},
{"type":"Feature","geometry":{"type":"Point","coordinates":[-99.07933423067036,19.451011097259663,0]},"properties":{"SISTEMA":"STC Metro","NOMBRE":"Deportivo Oceanía","LINEA":"B","EST":"11","CVE_EST":"STCLB11","CVE_EOD17":"05178","TIPO":"Intermedia","ALCALDIAS":"Gustavo A. Madero","AÑO":1999}},
{"type":"Feature","geometry":{"type":"Point","coordinates":[-99.0692886960206,19.458094772963857,0]},"properties":{"SISTEMA":"STC Metro","NOMBRE":"Bosque de Aragón","LINEA":"B","EST":"12","CVE_EST":"STCLB12","CVE_EOD17":"05175","TIPO":"Intermedia","ALCALDIAS":"Gustavo A. Madero","AÑO":1999}},
{"type":"Feature","geometry":{"type":"Point","coordinates":[-99.06138196686965,19.461670791944844,0]},"properties":{"SISTEMA":"STC Metro","NOMBRE":"Villa de Aragón","LINEA":"B","EST":"13","CVE_EST":"STCLB13","CVE_EOD17":"05195","TIPO":"Intermedia","ALCALDIAS":"Gustavo A. Madero","AÑO":1999}},
{"type":"Feature","geometry":{"type":"Point","coordinates":[-99.05461333650334,19.472885633631996,0]},"properties":{"SISTEMA":"STC Metro","NOMBRE":"Nezahualcóyotl","LINEA":"B","EST":"14","CVE_EST":"STCLB14","CVE_EOD17":"05186","TIPO":"Intermedia","ALCALDIAS":"Estado de México - Nezahualcóyotl","AÑO":2000}},
{"type":"Feature","geometry":{"type":"Point","coordinates":[-99.0489571600943,19.485753223001417,0]},"properties":{"SISTEMA":"STC Metro","NOMBRE":"Impulsora","LINEA":"B","EST":"15","CVE_EST":"STCLB15","CVE_EOD17":"05182","TIPO":"Intermedia","ALCALDIAS":"Estado de México - Nezahualcóyotl","AÑO":2000}},
{"type":"Feature","geometry":{"type":"Point","coordinates":[-99.04678664175502,19.490688675585073,0]},"properties":{"SISTEMA":"STC Metro","NOMBRE":"Río de los Remedios","LINEA":"B","EST":"16","CVE_EST":"STCLB16","CVE_EOD17":"05191","TIPO":"Intermedia","ALCALDIAS":"Estado de México - Nezahualcóyotl","AÑO":2000}},
{"type":"Feature","geometry":{"type":"Point","coordinates":[-99.0420671972603,19.501490328356404,0]},"properties":{"SISTEMA":"STC Metro","NOMBRE":"Múzquiz","LINEA":"B","EST":"17","CVE_EST":"STCLB17","CVE_EOD17":"05185","TIPO":"Intermedia","ALCALDIAS":"Estado de México - Ecatepec","AÑO":2000}},
{"type":"Feature","geometry":{"type":"Point","coordinates":[-99.0360693374375,19.515125082713773,0]},"properties":{"SISTEMA":"STC Metro","NOMBRE":"Ecatepec","LINEA":"B","EST":"18","CVE_EST":"STCLB18","CVE_EOD17":"05179","TIPO":"Intermedia","ALCALDIAS":"Estado de México - Ecatepec","AÑO":2000}},
{"type":"Feature","geometry":{"type":"Point","coordinates":[-99.03334249438895,19.521344934228452,0]},"properties":{"SISTEMA":"STC Metro","NOMBRE":"Olímpica","LINEA":"B","EST":"19","CVE_EST":"STCLB19","CVE_EOD17":"05188","TIPO":"Intermedia","ALCALDIAS":"Estado de México - Ecatepec","AÑO":2000}},
{"type":"Feature","geometry":{"type":"Point","coordinates":[-99.03018454966082,19.528475893853724,0]},"properties":{"SISTEMA":"STC Metro","NOMBRE":"Plaza Aragón","LINEA":"B","EST":"20","CVE_EST":"STCLB20","CVE_EOD17":"05189","TIPO":"Intermedia","ALCALDIAS":"Estado de México - Ecatepec","AÑO":2000}},
{"type":"Feature","geometry":{"type":"Point","coordinates":[-99.0275097173377,19.53451306511141,0]},"properties":{"SISTEMA":"STC Metro","NOMBRE":"Ciudad Azteca","LINEA":"B","EST":"21","CVE_EST":"STCLB21","CVE_EOD17":"05177","TIPO":"Terminal","ALCALDIAS":"Estado de México - Ecatepec","AÑO":2000}}
]}